[
{"url": "https://www.foody.vn/ho-chi-minh/monkey-in-black-su-van-hanh", "title": "Monkey In Black Cafe - Sư Vạn Hạnh"},
{"url": "https://www.foody.vn/ho-chi-minh/oromia-coffee-nam-ky-khoi-nghia", "title": "Oromia Coffee - Nam Kỳ Khởi Nghĩa"},
{"url": "https://www.foody.vn/ho-chi-minh/morico-modern-japanese-restaurant-cafe-vincom-center", "title": "Morico - Contemporary Japanese Lifestyle - Vincom Center"}
][
{"url": "https://www.foody.vn/ho-chi-minh/monkey-in-black-su-van-hanh", "title": "Monkey In Black Cafe - Sư Vạn Hạnh", "category": "Café/Dessert", "avgscore": 7.6, "address": "698 Sư Vạn Hạnh", "district": "Quận 10", "city": "TP. HCM", "latitude": "10.7710579885447", "longitude": "106.6700968280334", "timeopen": " 08:00 - 22:00", "pricerange": "17.000đ - 49.000đ"},
{"url": "https://www.foody.vn/ho-chi-minh/oromia-coffee-nam-ky-khoi-nghia", "title": "Oromia Coffee - Nam Kỳ Khởi Nghĩa", "category": "Café/Dessert", "avgscore": 7.8, "address": "193A/D3 Nam Kỳ Khởi Nghĩa", "district": "Quận 3", "city": "TP. HCM", "latitude": "10.7864664000000", "longitude": "106.6871420000000", "timeopen": " 07:00 - 22:30", "pricerange": "36.000đ - 146.000đ"},
{"url": "https://www.foody.vn/ho-chi-minh/morico-modern-japanese-restaurant-cafe-vincom-center", "title": "Morico - Contemporary Japanese Lifestyle - Vincom Center", "category": "Nhà hàng, Café/Dessert, Tiệm bánh", "avgscore": 7.7, "address": "Tầng B3 Vincom Center, 70 - 72 Lê Thánh Tôn, P. Bến Nghé", "district": "Quận 1", "city": "TP. HCM", "latitude": "10.7784420000000", "longitude": "106.7021580000000", "timeopen": " 10:00 - 22:00", "pricerange": "70.000đ - 220.000đ"}
][
{"url": "https://www.foody.vn/ho-chi-minh/monkey-in-black-su-van-hanh", "title": "Monkey In Black Cafe - Sư Vạn Hạnh", "category": "Café/Dessert", "avgscore": 7.6, "address": "698 Sư Vạn Hạnh", "district": "Quận 10", "city": "TP. HCM", "latitude": "10.7710579885447", "longitude": "106.6700968280334", "timeopen": " 08:00 - 22:00", "pricerange": "17.000đ - 49.000đ"},
{"url": "https://www.foody.vn/ho-chi-minh/oromia-coffee-nam-ky-khoi-nghia", "title": "Oromia Coffee - Nam Kỳ Khởi Nghĩa", "category": "Café/Dessert", "avgscore": 7.8, "address": "193A/D3 Nam Kỳ Khởi Nghĩa", "district": "Quận 3", "city": "TP. HCM", "latitude": "10.7864664000000", "longitude": "106.6871420000000", "timeopen": " 07:00 - 22:30", "pricerange": "36.000đ - 146.000đ"},
{"url": "https://www.foody.vn/ho-chi-minh/morico-modern-japanese-restaurant-cafe-vincom-center", "title": "Morico - Contemporary Japanese Lifestyle - Vincom Center", "category": "Nhà hàng, Café/Dessert, Tiệm bánh", "avgscore": 7.7, "address": "Tầng B3 Vincom Center, 70 - 72 Lê Thánh Tôn, P. Bến Nghé", "district": "Quận 1", "city": "TP. HCM", "latitude": "10.7784420000000", "longitude": "106.7021580000000", "timeopen": " 10:00 - 22:00", "pricerange": "70.000đ - 220.000đ"}
][
{"url": "https://www.foody.vn/ho-chi-minh/monkey-in-black-su-van-hanh", "title": "Monkey In Black Cafe - Sư Vạn Hạnh", "category": "Café/Dessert", "avgscore": 7.6, "address": "698 Sư Vạn Hạnh", "district": "Quận 10", "city": "TP. HCM", "latitude": "10.7710579885447", "longitude": "106.6700968280334", "timeopen": " 08:00 - 22:00", "pricerange": "17.000đ - 49.000đ"},
{"url": "https://www.foody.vn/ho-chi-minh/oromia-coffee-nam-ky-khoi-nghia", "title": "Oromia Coffee - Nam Kỳ Khởi Nghĩa", "category": "Café/Dessert", "avgscore": 7.8, "address": "193A/D3 Nam Kỳ Khởi Nghĩa", "district": "Quận 3", "city": "TP. HCM", "latitude": "10.7864664000000", "longitude": "106.6871420000000", "timeopen": " 07:00 - 22:30", "pricerange": "36.000đ - 146.000đ"},
{"url": "https://www.foody.vn/ho-chi-minh/morico-modern-japanese-restaurant-cafe-vincom-center", "title": "Morico - Contemporary Japanese Lifestyle - Vincom Center", "category": "Nhà hàng, Café/Dessert, Tiệm bánh", "avgscore": 7.7, "address": "Tầng B3 Vincom Center, 70 - 72 Lê Thánh Tôn, P. Bến Nghé", "district": "Quận 1", "city": "TP. HCM", "latitude": "10.7784420000000", "longitude": "106.7021580000000", "timeopen": " 10:00 - 22:00", "pricerange": "70.000đ - 220.000đ"}
][
{"url": "https://www.foody.vn/ho-chi-minh/monkey-in-black-su-van-hanh", "title": "Monkey In Black Cafe - Sư Vạn Hạnh", "category": "Café/Dessert", "avgscore": 7.6, "address": "698 Sư Vạn Hạnh", "district": "Quận 10", "city": "TP. HCM", "latitude": "10.7710579885447", "longitude": "106.6700968280334", "timeopen": " 08:00 - 22:00", "pricerange": "17.000đ - 49.000đ"},
{"url": "https://www.foody.vn/ho-chi-minh/oromia-coffee-nam-ky-khoi-nghia", "title": "Oromia Coffee - Nam Kỳ Khởi Nghĩa", "category": "Café/Dessert", "avgscore": 7.8, "address": "193A/D3 Nam Kỳ Khởi Nghĩa", "district": "Quận 3", "city": "TP. HCM", "latitude": "10.7864664000000", "longitude": "106.6871420000000", "timeopen": " 07:00 - 22:30", "pricerange": "36.000đ - 146.000đ"},
{"url": "https://www.foody.vn/ho-chi-minh/morico-modern-japanese-restaurant-cafe-vincom-center", "title": "Morico - Contemporary Japanese Lifestyle - Vincom Center", "category": "Nhà hàng, Café/Dessert, Tiệm bánh", "avgscore": 7.7, "address": "Tầng B3 Vincom Center, 70 - 72 Lê Thánh Tôn, P. Bến Nghé", "district": "Quận 1", "city": "TP. HCM", "latitude": "10.7784420000000", "longitude": "106.7021580000000", "timeopen": " 10:00 - 22:00", "pricerange": "70.000đ - 220.000đ"}
][
{"url": "https://www.foody.vn/ho-chi-minh/monkey-in-black-su-van-hanh", "title": "Monkey In Black Cafe - Sư Vạn Hạnh", "category": "Café/Dessert", "avgscore": 7.6, "address": "698 Sư Vạn Hạnh", "district": "Quận 10", "city": "TP. HCM", "latitude": "10.7710579885447", "longitude": "106.6700968280334", "timeopen": " 08:00 - 22:00", "pricerange": "17.000đ - 49.000đ"},
{"url": "https://www.foody.vn/ho-chi-minh/oromia-coffee-nam-ky-khoi-nghia", "title": "Oromia Coffee - Nam Kỳ Khởi Nghĩa", "category": "Café/Dessert", "avgscore": 7.8, "address": "193A/D3 Nam Kỳ Khởi Nghĩa", "district": "Quận 3", "city": "TP. HCM", "latitude": "10.7864664000000", "longitude": "106.6871420000000", "timeopen": " 07:00 - 22:30", "pricerange": "36.000đ - 146.000đ"},
{"url": "https://www.foody.vn/ho-chi-minh/morico-modern-japanese-restaurant-cafe-vincom-center", "title": "Morico - Contemporary Japanese Lifestyle - Vincom Center", "category": "Nhà hàng, Café/Dessert, Tiệm bánh", "avgscore": 7.7, "address": "Tầng B3 Vincom Center, 70 - 72 Lê Thánh Tôn, P. Bến Nghé", "district": "Quận 1", "city": "TP. HCM", "latitude": "10.7784420000000", "longitude": "106.7021580000000", "timeopen": " 10:00 - 22:00", "pricerange": "70.000đ - 220.000đ"}
][
{"url": "https://www.foody.vn/ho-chi-minh/monkey-in-black-su-van-hanh", "title": "Monkey In Black Cafe - Sư Vạn Hạnh", "category": "Café/Dessert", "avgscore": 7.6, "address": "698 Sư Vạn Hạnh", "district": "Quận 10", "city": "TP. HCM", "latitude": "10.7710579885447", "longitude": "106.6700968280334", "timeopen": " 08:00 - 22:00", "pricerange": "17.000đ - 49.000đ"},
{"url": "https://www.foody.vn/ho-chi-minh/oromia-coffee-nam-ky-khoi-nghia", "title": "Oromia Coffee - Nam Kỳ Khởi Nghĩa", "category": "Café/Dessert", "avgscore": 7.8, "address": "193A/D3 Nam Kỳ Khởi Nghĩa", "district": "Quận 3", "city": "TP. HCM", "latitude": "10.7864664000000", "longitude": "106.6871420000000", "timeopen": " 07:00 - 22:30", "pricerange": "36.000đ - 146.000đ"},
{"url": "https://www.foody.vn/ho-chi-minh/morico-modern-japanese-restaurant-cafe-vincom-center", "title": "Morico - Contemporary Japanese Lifestyle - Vincom Center", "category": "Nhà hàng, Café/Dessert, Tiệm bánh", "avgscore": 7.7, "address": "Tầng B3 Vincom Center, 70 - 72 Lê Thánh Tôn, P. Bến Nghé", "district": "Quận 1", "city": "TP. HCM", "latitude": "10.7784420000000", "longitude": "106.7021580000000", "timeopen": " 10:00 - 22:00", "pricerange": "70.000đ - 220.000đ"}
][
{"url": "https://www.foody.vn/ho-chi-minh/monkey-in-black-su-van-hanh", "title": "Monkey In Black Cafe - Sư Vạn Hạnh", "category": "Café/Dessert", "avgscore": 7.6, "address": "698 Sư Vạn Hạnh", "district": "Quận 10", "city": "TP. HCM", "latitude": "10.7710579885447", "longitude": "106.6700968280334", "timeopen": " 08:00 - 22:00", "pricerange": "17.000đ - 49.000đ"},
{"url": "https://www.foody.vn/ho-chi-minh/oromia-coffee-nam-ky-khoi-nghia", "title": "Oromia Coffee - Nam Kỳ Khởi Nghĩa", "category": "Café/Dessert", "avgscore": 7.8, "address": "193A/D3 Nam Kỳ Khởi Nghĩa", "district": "Quận 3", "city": "TP. HCM", "latitude": "10.7864664000000", "longitude": "106.6871420000000", "timeopen": " 07:00 - 22:30", "pricerange": "36.000đ - 146.000đ"},
{"url": "https://www.foody.vn/ho-chi-minh/morico-modern-japanese-restaurant-cafe-vincom-center", "title": "Morico - Contemporary Japanese Lifestyle - Vincom Center", "category": "Nhà hàng, Café/Dessert, Tiệm bánh", "avgscore": 7.7, "address": "Tầng B3 Vincom Center, 70 - 72 Lê Thánh Tôn, P. Bến Nghé", "district": "Quận 1", "city": "TP. HCM", "latitude": "10.7784420000000", "longitude": "106.7021580000000", "timeopen": " 10:00 - 22:00", "pricerange": "70.000đ - 220.000đ"}
][
{"url": "https://www.foody.vn/ho-chi-minh/monkey-in-black-su-van-hanh", "title": "Monkey In Black Cafe - Sư Vạn Hạnh", "category": "Café/Dessert", "avgscore": 7.6, "address": "698 Sư Vạn Hạnh", "district": "Quận 10", "city": "TP. HCM", "latitude": "10.7710579885447", "longitude": "106.6700968280334", "timeopen": " 08:00 - 22:00", "pricerange": "17.000đ - 49.000đ"},
{"url": "https://www.foody.vn/ho-chi-minh/oromia-coffee-nam-ky-khoi-nghia", "title": "Oromia Coffee - Nam Kỳ Khởi Nghĩa", "category": "Café/Dessert", "avgscore": 7.8, "address": "193A/D3 Nam Kỳ Khởi Nghĩa", "district": "Quận 3", "city": "TP. HCM", "latitude": "10.7864664000000", "longitude": "106.6871420000000", "timeopen": " 07:00 - 22:30", "pricerange": "36.000đ - 146.000đ"},
{"url": "https://www.foody.vn/ho-chi-minh/morico-modern-japanese-restaurant-cafe-vincom-center", "title": "Morico - Contemporary Japanese Lifestyle - Vincom Center", "category": "Nhà hàng, Café/Dessert, Tiệm bánh", "avgscore": 7.7, "address": "Tầng B3 Vincom Center, 70 - 72 Lê Thánh Tôn, P. Bến Nghé", "district": "Quận 1", "city": "TP. HCM", "latitude": "10.7784420000000", "longitude": "106.7021580000000", "timeopen": " 10:00 - 22:00", "pricerange": "70.000đ - 220.000đ"},
{"url": "https://www.foody.vn/ho-chi-minh/morico-modern-japanese-restaurant-cafe-le-loi", "title": "Morico - Contemporary Japanese Lifestyle - Lê Lợi", "category": "Café/Dessert", "avgscore": 7.7, "address": "30 Lê Lợi, P. Bến Nghé", "district": "Quận 1", "city": "TP. HCM", "latitude": "10.7744540000000", "longitude": "106.7007420000000", "timeopen": " 10:30 - 21:00", "pricerange": "70.000đ - 165.000đ"},
{"url": "https://www.foody.vn/ho-chi-minh/morico-modern-japanese-restaurant-cafe-crescent-mall", "title": "Morico - Contemporary Japanese Lifestyle - Crescent Mall", "category": "Nhà hàng, Café/Dessert", "avgscore": 7.9, "address": "Tầng 2 Crescent Mall, 101 Tôn Dật Tiên, P. Tân Phú", "district": "Quận 7", "city": "TP. HCM", "latitude": "10.7278570000000", "longitude": "106.7181740000000", "timeopen": " 11:00 - 18:00", "pricerange": "70.000đ - 165.000đ"},
{"url": "https://www.foody.vn/ho-chi-minh/morico-modern-japanese-restaurant-cafe-mplaza-saigon", "title": "Morico - Contemporary Japanese Lifestyle - Mplaza Saigon", "category": "Nhà hàng, Café/Dessert", "avgscore": 7.8, "address": "Mplaza Saigon, 39 Lê Duẩn, P. Bến Nghé", "district": "Quận 1", "city": "TP. HCM", "latitude": "10.7808820000000", "longitude": "106.7011180000000", "timeopen": " 10:30 - 21:00", "pricerange": "70.000đ - 165.000đ"},
{"url": "https://www.foody.vn/ho-chi-minh/morico-modern-japanese-restaurant-cafe-saigon-pearl", "title": "Morico - Contemporary Japanese Lifestyle - Saigon Pearl", "category": "Nhà hàng, Café/Dessert", "avgscore": 8.0, "address": "Saigon Pearl, 92 Nguyễn Hữu Cảnh", "district": "Quận Bình Thạnh", "city": "TP. HCM", "latitude": "10.7908811000000", "longitude": "106.7190231000000", "timeopen": " 10:00 - 21:00", "pricerange": "70.000đ - 165.000đ"},
{"url": "https://www.foody.vn/ho-chi-minh/morico-contemporary-japanese-lifestyle-diamond-island", "title": "Morico - Contemporary Japanese Lifestyle - Diamond Island", "category": "Nhà hàng, Café/Dessert", "avgscore": 4.9, "address": "Đảo Kim Cương, P. Bình Trưng Tây", "district": "Quận 2", "city": "TP. HCM", "latitude": "10.7787522000000", "longitude": "106.7466850000000", "timeopen": " 11:00 - 19:45", "pricerange": "38.000đ - 588.000đ"},
{"url": "https://www.foody.vn/ho-chi-minh/morico-modern-japanese-restaurant-cafe-somerset", "title": "Morico - Contemporary Japanese Lifestyle - Somerset", "category": "Café/Dessert", "avgscore": 8.0, "address": "11 Mạc Đĩnh Chi, P. Bến Nghé", "district": "Quận 1", "city": "TP. HCM", "latitude": "10.7839575171139", "longitude": "106.6997422379972", "timeopen": " 10:30 - 21:00", "pricerange": "70.000đ - 220.000đ"},
{"url": "https://www.foody.vn/ho-chi-minh/the-sushi-bar-capri-hotel-residences", "title": "The Sushi Bar - Capri Hotel Residences", "category": "Nhà hàng", "avgscore": 7.7, "address": "C6B02-2, New South Urban City, P. Tân Phú", "district": "Quận 7", "city": "TP. HCM", "latitude": "10.7301360000000", "longitude": "106.7234240000000", "timeopen": " 11:00 - 14:30 | 17:00 - 22:30", "pricerange": "100.000đ - 330.000đ"},
{"url": "https://www.foody.vn/ho-chi-minh/marukame-udon-duong-3-thang-2", "title": "Marukame Udon - Đường 3 Tháng 2", "category": "Nhà hàng", "avgscore": 7.6, "address": "300 Đường 3 Tháng 2", "district": "Quận 10", "city": "TP. HCM", "latitude": "10.7702105675812", "longitude": "106.6715463995934", "timeopen": " 08:00 - 22:00", "pricerange": "50.000đ - 150.000đ"}
][
{"url": "https://www.foody.vn/ho-chi-minh/monkey-in-black-su-van-hanh", "title": "Monkey In Black Cafe - Sư Vạn Hạnh", "category": "Café/Dessert", "avgscore": 7.6, "address": "698 Sư Vạn Hạnh", "district": "Quận 10", "city": "TP. HCM", "latitude": "10.7710579885447", "longitude": "106.6700968280334", "timeopen": " 08:00 - 22:00", "pricerange": "17.000đ - 49.000đ"},
{"url": "https://www.foody.vn/ho-chi-minh/oromia-coffee-nam-ky-khoi-nghia", "title": "Oromia Coffee - Nam Kỳ Khởi Nghĩa", "category": "Café/Dessert", "avgscore": 7.8, "address": "193A/D3 Nam Kỳ Khởi Nghĩa", "district": "Quận 3", "city": "TP. HCM", "latitude": "10.7864664000000", "longitude": "106.6871420000000", "timeopen": " 07:00 - 22:30", "pricerange": "36.000đ - 146.000đ"},
{"url": "https://www.foody.vn/ho-chi-minh/morico-modern-japanese-restaurant-cafe-vincom-center", "title": "Morico - Contemporary Japanese Lifestyle - Vincom Center", "category": "Nhà hàng, Café/Dessert, Tiệm bánh", "avgscore": 7.7, "address": "Tầng B3 Vincom Center, 70 - 72 Lê Thánh Tôn, P. Bến Nghé", "district": "Quận 1", "city": "TP. HCM", "latitude": "10.7784420000000", "longitude": "106.7021580000000", "timeopen": " 10:00 - 22:00", "pricerange": "70.000đ - 220.000đ"},
{"url": "https://www.foody.vn/ho-chi-minh/morico-modern-japanese-restaurant-cafe-saigon-pearl", "title": "Morico - Contemporary Japanese Lifestyle - Saigon Pearl", "category": "Nhà hàng, Café/Dessert", "avgscore": 8.0, "address": "Saigon Pearl, 92 Nguyễn Hữu Cảnh", "district": "Quận Bình Thạnh", "city": "TP. HCM", "latitude": "10.7908811000000", "longitude": "106.7190231000000", "timeopen": " 10:00 - 21:00", "pricerange": "70.000đ - 165.000đ"},
{"url": "https://www.foody.vn/ho-chi-minh/morico-modern-japanese-restaurant-cafe-le-loi", "title": "Morico - Contemporary Japanese Lifestyle - Lê Lợi", "category": "Café/Dessert", "avgscore": 7.7, "address": "30 Lê Lợi, P. Bến Nghé", "district": "Quận 1", "city": "TP. HCM", "latitude": "10.7744540000000", "longitude": "106.7007420000000", "timeopen": " 10:30 - 21:00", "pricerange": "70.000đ - 165.000đ"},
{"url": "https://www.foody.vn/ho-chi-minh/morico-contemporary-japanese-lifestyle-diamond-island", "title": "Morico - Contemporary Japanese Lifestyle - Diamond Island", "category": "Nhà hàng, Café/Dessert", "avgscore": 4.9, "address": "Đảo Kim Cương, P. Bình Trưng Tây", "district": "Quận 2", "city": "TP. HCM", "latitude": "10.7787522000000", "longitude": "106.7466850000000", "timeopen": " 11:00 - 19:45", "pricerange": "38.000đ - 588.000đ"},
{"url": "https://www.foody.vn/ho-chi-minh/morico-modern-japanese-restaurant-cafe-somerset", "title": "Morico - Contemporary Japanese Lifestyle - Somerset", "category": "Café/Dessert", "avgscore": 8.0, "address": "11 Mạc Đĩnh Chi, P. Bến Nghé", "district": "Quận 1", "city": "TP. HCM", "latitude": "10.7839575171139", "longitude": "106.6997422379972", "timeopen": " 10:30 - 21:00", "pricerange": "70.000đ - 220.000đ"},
{"url": "https://www.foody.vn/ho-chi-minh/morico-modern-japanese-restaurant-cafe-crescent-mall", "title": "Morico - Contemporary Japanese Lifestyle - Crescent Mall", "category": "Nhà hàng, Café/Dessert", "avgscore": 7.9, "address": "Tầng 2 Crescent Mall, 101 Tôn Dật Tiên, P. Tân Phú", "district": "Quận 7", "city": "TP. HCM", "latitude": "10.7278570000000", "longitude": "106.7181740000000", "timeopen": " 11:00 - 18:00", "pricerange": "70.000đ - 165.000đ"},
{"url": "https://www.foody.vn/ho-chi-minh/morico-modern-japanese-restaurant-cafe-mplaza-saigon", "title": "Morico - Contemporary Japanese Lifestyle - Mplaza Saigon", "category": "Nhà hàng, Café/Dessert", "avgscore": 7.8, "address": "Mplaza Saigon, 39 Lê Duẩn, P. Bến Nghé", "district": "Quận 1", "city": "TP. HCM", "latitude": "10.7808820000000", "longitude": "106.7011180000000", "timeopen": " 10:30 - 21:00", "pricerange": "70.000đ - 165.000đ"},
{"url": "https://www.foody.vn/ho-chi-minh/the-sushi-bar-capri-hotel-residences", "title": "The Sushi Bar - Capri Hotel Residences", "category": "Nhà hàng", "avgscore": 7.7, "address": "C6B02-2, New South Urban City, P. Tân Phú", "district": "Quận 7", "city": "TP. HCM", "latitude": "10.7301360000000", "longitude": "106.7234240000000", "timeopen": " 11:00 - 14:30 | 17:00 - 22:30", "pricerange": "100.000đ - 330.000đ"},
{"url": "https://www.foody.vn/ho-chi-minh/marukame-udon-duong-3-thang-2", "title": "Marukame Udon - Đường 3 Tháng 2", "category": "Nhà hàng", "avgscore": 7.6, "address": "300 Đường 3 Tháng 2", "district": "Quận 10", "city": "TP. HCM", "latitude": "10.7702105675812", "longitude": "106.6715463995934", "timeopen": " 08:00 - 22:00", "pricerange": "50.000đ - 150.000đ"},
{"url": "https://www.foody.vn/ho-chi-minh/partea-english-tearoom-nguyen-hue-gian-2", "title": "Partea - English Tearoom - Nguyễn Huệ - Gian 2", "category": "Café/Dessert", "avgscore": 8.1, "address": "Tầng 4, 42 Nguyễn Huệ", "district": "Quận 1", "city": "TP. HCM", "latitude": "10.7739210000000", "longitude": "106.7043100000000", "timeopen": " 09:00 - 22:00", "pricerange": "50.000đ - 200.000đ"},
{"url": "https://www.foody.vn/ho-chi-minh/partea-english-tearoom-nguyen-thi-minh-khai", "title": "Partea - English Tearoom - Nguyễn Thị Minh Khai", "category": "Café/Dessert", "avgscore": 6.8, "address": "240 Nguyễn Thị Minh Khai, P. 6", "district": "Quận 3", "city": "TP. HCM", "latitude": "10.7741310000000", "longitude": "106.6899050000000", "timeopen": " 08:00 - 23:00", "pricerange": "50.000đ - 200.000đ"}
][
{"url": "https://www.foody.vn/ho-chi-minh/monkey-in-black-su-van-hanh", "title": "Monkey In Black Cafe - Sư Vạn Hạnh", "category": "Café/Dessert", "avgscore": 7.6, "address": "698 Sư Vạn Hạnh", "district": "Quận 10", "city": "TP. HCM", "latitude": "10.7710579885447", "longitude": "106.6700968280334", "timeopen": " 08:00 - 22:00", "pricerange": "17.000đ - 49.000đ"},
{"url": "https://www.foody.vn/ho-chi-minh/oromia-coffee-nam-ky-khoi-nghia", "title": "Oromia Coffee - Nam Kỳ Khởi Nghĩa", "category": "Café/Dessert", "avgscore": 7.8, "address": "193A/D3 Nam Kỳ Khởi Nghĩa", "district": "Quận 3", "city": "TP. HCM", "latitude": "10.7864664000000", "longitude": "106.6871420000000", "timeopen": " 07:00 - 22:30", "pricerange": "36.000đ - 146.000đ"},
{"url": "https://www.foody.vn/ho-chi-minh/morico-modern-japanese-restaurant-cafe-vincom-center", "title": "Morico - Contemporary Japanese Lifestyle - Vincom Center", "category": "Nhà hàng, Café/Dessert, Tiệm bánh", "avgscore": 7.7, "address": "Tầng B3 Vincom Center, 70 - 72 Lê Thánh Tôn, P. Bến Nghé", "district": "Quận 1", "city": "TP. HCM", "latitude": "10.7784420000000", "longitude": "106.7021580000000", "timeopen": " 10:00 - 22:00", "pricerange": "70.000đ - 220.000đ"},
{"url": "https://www.foody.vn/ho-chi-minh/morico-modern-japanese-restaurant-cafe-le-loi", "title": "Morico - Contemporary Japanese Lifestyle - Lê Lợi", "category": "Café/Dessert", "avgscore": 7.7, "address": "30 Lê Lợi, P. Bến Nghé", "district": "Quận 1", "city": "TP. HCM", "latitude": "10.7744540000000", "longitude": "106.7007420000000", "timeopen": " 10:30 - 21:00", "pricerange": "70.000đ - 165.000đ"},
{"url": "https://www.foody.vn/ho-chi-minh/morico-contemporary-japanese-lifestyle-diamond-island", "title": "Morico - Contemporary Japanese Lifestyle - Diamond Island", "category": "Nhà hàng, Café/Dessert", "avgscore": 4.9, "address": "Đảo Kim Cương, P. Bình Trưng Tây", "district": "Quận 2", "city": "TP. HCM", "latitude": "10.7787522000000", "longitude": "106.7466850000000", "timeopen": " 11:00 - 19:45", "pricerange": "38.000đ - 588.000đ"},
{"url": "https://www.foody.vn/ho-chi-minh/morico-modern-japanese-restaurant-cafe-somerset", "title": "Morico - Contemporary Japanese Lifestyle - Somerset", "category": "Café/Dessert", "avgscore": 8.0, "address": "11 Mạc Đĩnh Chi, P. Bến Nghé", "district": "Quận 1", "city": "TP. HCM", "latitude": "10.7839575171139", "longitude": "106.6997422379972", "timeopen": " 10:30 - 21:00", "pricerange": "70.000đ - 220.000đ"},
{"url": "https://www.foody.vn/ho-chi-minh/morico-modern-japanese-restaurant-cafe-crescent-mall", "title": "Morico - Contemporary Japanese Lifestyle - Crescent Mall", "category": "Nhà hàng, Café/Dessert", "avgscore": 7.9, "address": "Tầng 2 Crescent Mall, 101 Tôn Dật Tiên, P. Tân Phú", "district": "Quận 7", "city": "TP. HCM", "latitude": "10.7278570000000", "longitude": "106.7181740000000", "timeopen": " 11:00 - 18:00", "pricerange": "70.000đ - 165.000đ"},
{"url": "https://www.foody.vn/ho-chi-minh/morico-modern-japanese-restaurant-cafe-mplaza-saigon", "title": "Morico - Contemporary Japanese Lifestyle - Mplaza Saigon", "category": "Nhà hàng, Café/Dessert", "avgscore": 7.8, "address": "Mplaza Saigon, 39 Lê Duẩn, P. Bến Nghé", "district": "Quận 1", "city": "TP. HCM", "latitude": "10.7808820000000", "longitude": "106.7011180000000", "timeopen": " 10:30 - 21:00", "pricerange": "70.000đ - 165.000đ"},
{"url": "https://www.foody.vn/ho-chi-minh/morico-modern-japanese-restaurant-cafe-saigon-pearl", "title": "Morico - Contemporary Japanese Lifestyle - Saigon Pearl", "category": "Nhà hàng, Café/Dessert", "avgscore": 8.0, "address": "Saigon Pearl, 92 Nguyễn Hữu Cảnh", "district": "Quận Bình Thạnh", "city": "TP. HCM", "latitude": "10.7908811000000", "longitude": "106.7190231000000", "timeopen": " 10:00 - 21:00", "pricerange": "70.000đ - 165.000đ"},
{"url": "https://www.foody.vn/ho-chi-minh/the-sushi-bar-capri-hotel-residences", "title": "The Sushi Bar - Capri Hotel Residences", "category": "Nhà hàng", "avgscore": 7.7, "address": "C6B02-2, New South Urban City, P. Tân Phú", "district": "Quận 7", "city": "TP. HCM", "latitude": "10.7301360000000", "longitude": "106.7234240000000", "timeopen": " 11:00 - 14:30 | 17:00 - 22:30", "pricerange": "100.000đ - 330.000đ"},
{"url": "https://www.foody.vn/ho-chi-minh/marukame-udon-duong-3-thang-2", "title": "Marukame Udon - Đường 3 Tháng 2", "category": "Nhà hàng", "avgscore": 7.6, "address": "300 Đường 3 Tháng 2", "district": "Quận 10", "city": "TP. HCM", "latitude": "10.7702105675812", "longitude": "106.6715463995934", "timeopen": " 08:00 - 22:00", "pricerange": "50.000đ - 150.000đ"},
{"url": "https://www.foody.vn/ho-chi-minh/partea-english-tearoom-nguyen-hue-gian-2", "title": "Partea - English Tearoom - Nguyễn Huệ - Gian 2", "category": "Café/Dessert", "avgscore": 8.1, "address": "Tầng 4, 42 Nguyễn Huệ", "district": "Quận 1", "city": "TP. HCM", "latitude": "10.7739210000000", "longitude": "106.7043100000000", "timeopen": " 09:00 - 22:00", "pricerange": "50.000đ - 200.000đ"},
{"url": "https://www.foody.vn/ho-chi-minh/partea-english-tearoom-nguyen-thi-minh-khai", "title": "Partea - English Tearoom - Nguyễn Thị Minh Khai", "category": "Café/Dessert", "avgscore": 6.8, "address": "240 Nguyễn Thị Minh Khai, P. 6", "district": "Quận 3", "city": "TP. HCM", "latitude": "10.7741310000000", "longitude": "106.6899050000000", "timeopen": " 08:00 - 23:00", "pricerange": "50.000đ - 200.000đ"},
{"url": "https://www.foody.vn/ho-chi-minh/starbucks-coffee-emart", "title": "Starbucks Coffee - Emart", "category": "Café/Dessert", "avgscore": 7.3, "address": "Emart, 366 Phan Văn Trị, P. 5", "district": "Quận Gò Vấp", "city": "TP. HCM", "latitude": "10.8227380000000", "longitude": "106.6935720000000", "timeopen": " 08:00 - 22:05", "pricerange": "35.000đ - 100.000đ"},
{"url": "https://www.foody.vn/ho-chi-minh/starbucks-coffee-nguyen-hue-196982", "title": "Starbucks Coffee - Nguyễn Huệ", "category": "Café/Dessert", "avgscore": 7.6, "address": "99 Nguyễn Huệ, P. Bến Nghé", "district": "Quận 1", "city": "TP. HCM", "latitude": "10.7730970000000", "longitude": "106.7043330000000", "timeopen": " 06:30 - 23:00", "pricerange": "100.000đ - 200.000đ"},
{"url": "https://www.foody.vn/ho-chi-minh/buzza-pizza-nguyen-thi-thap", "title": "Buzza Pizza - Nguyễn Thị Thập", "category": "Nhà hàng", "avgscore": 8.1, "address": "Tầng 1, 51 - 53 Nguyễn Thị Thập, P. Tân Hưng", "district": "Quận 7", "city": "TP. HCM", "latitude": "10.7408710000000", "longitude": "106.6983734000000", "timeopen": " 10:00 - 22:30", "pricerange": "49.000đ - 159.000đ"},
{"url": "https://www.foody.vn/ho-chi-minh/buzza-pizza-e-mart-go-vap", "title": "Buzza Pizza - Emart Gò Vấp", "category": "Nhà hàng", "avgscore": 8.0, "address": "Tầng Trệt Emart Gò Vấp - 366 Phan Văn Trị, P. 5", "district": "Quận Gò Vấp", "city": "TP. HCM", "latitude": "10.8242327000000", "longitude": "106.6918905999999", "timeopen": " 10:00 - 22:30", "pricerange": "50.000đ - 200.000đ"},
{"url": "https://www.foody.vn/ho-chi-minh/hanuri-quan-an-han-quoc-phan-van-tri", "title": "Hanuri - Quán Ăn Hàn Quốc - Phan Văn Trị", "category": "Quán ăn", "avgscore": 8.0, "address": "530 - 532 Phan Văn Trị, P. 7", "district": "Quận Gò Vấp", "city": "TP. HCM", "latitude": "10.8297720000000", "longitude": "106.6811750000000", "timeopen": " 09:00 - 21:30", "pricerange": "50.000đ - 110.000đ"},
{"url": "https://www.foody.vn/ho-chi-minh/pizza-4p-s-pizza-kieu-nhat-estella-place", "title": "Pizza 4P's - Pizza Kiểu Nhật - Estella Place", "category": "Nhà hàng", "avgscore": 8.5, "address": "88 Song Hành, P. An Phú", "district": "Quận 2", "city": "TP. HCM", "latitude": "10.8021050000000", "longitude": "106.7485740000000", "timeopen": " 10:00 - 22:00", "pricerange": "100.000đ - 400.000đ"},
{"url": "https://www.foody.vn/ho-chi-minh/pizza-4p-s-pizza-kieu-nhat-le-dai-hanh", "title": "Pizza 4P’S - Pizza Kiểu Nhật - Lê Đại Hành", "category": "Quán ăn", "avgscore": 9.1, "address": "184 Lê Đại Hành, P. 15", "district": "Quận 11", "city": "TP. HCM", "latitude": "10.7650671003810", "longitude": "106.6552624895146", "timeopen": " 10:00 - 23:00", "pricerange": "200.000đ - 500.000đ"},
{"url": "https://www.foody.vn/ho-chi-minh/pizza-4p-s-pizza-kieu-nhat-xuan-thuy", "title": "Pizza 4P's - Pizza Kiểu Nhật - Xuân Thủy", "category": "Nhà hàng", "avgscore": 8.7, "address": "48/1 Xuân Thủy, P. Thảo Điền", "district": "Quận 2", "city": "TP. HCM", "latitude": "10.8026790000000", "longitude": "106.7307880000000", "timeopen": " 10:00 - 22:30", "pricerange": "250.000đ - 500.000đ"},
{"url": "https://www.foody.vn/ho-chi-minh/pizza-4p-s-pizza-kieu-nhat-vo-van-kiet", "title": "Pizza 4P’s - Pizza Kiểu Nhật - Võ Văn Kiệt", "category": "Nhà hàng", "avgscore": 8.9, "address": "608 Võ Văn Kiệt, P. Cầu Kho", "district": "Quận 1", "city": "TP. HCM", "latitude": "10.7549498359776", "longitude": "106.6877581087406", "timeopen": " 10:00 - 23:00", "pricerange": "200.000đ - 500.000đ"},
{"url": "https://www.foody.vn/ho-chi-minh/pizza-4p-s-pizza-kieu-nhat-hai-ba-trung", "title": "Pizza 4P's - Pizza Kiểu Nhật - Hai Bà Trưng", "category": "Nhà hàng", "avgscore": 8.3, "address": "151 Hai Bà Trưng", "district": "Quận 3", "city": "TP. HCM", "latitude": "10.7833510000000", "longitude": "106.6971768000000", "timeopen": " 10:00 - 23:00", "pricerange": "250.000đ - 400.000đ"},
{"url": "https://www.foody.vn/ho-chi-minh/pizza-4p-s-pizza-kieu-nhat-saigon-centre", "title": "Pizza 4P's - Pizza Kiểu Nhật - Saigon Centre", "category": "Nhà hàng", "avgscore": 8.5, "address": "01 - 2 Lầu 6 Saigon Centre, 65 Lê Lợi, P. Bến Nghé", "district": "Quận 1", "city": "TP. HCM", "latitude": "10.7737260000000", "longitude": "106.7008770000000", "timeopen": " 10:00 - 23:00", "pricerange": "250.000đ - 400.000đ"},
{"url": "https://www.foody.vn/ho-chi-minh/pizza-4p-s-pizza-kieu-nhat-thu-khoa-huan", "title": "Pizza 4P's - Pizza Kiểu Nhật - Thủ Khoa Huân", "category": "Nhà hàng", "avgscore": 8.4, "address": "8 Thủ Khoa Huân, P. Bến Thành", "district": "Quận 1", "city": "TP. HCM", "latitude": "10.7734580000000", "longitude": "106.6975160000000", "timeopen": " 10:00 - 23:00 | 10:00 - 02:00", "pricerange": "150.000đ - 300.000đ"},
{"url": "https://www.foody.vn/ho-chi-minh/pizza-4p-s-pizza-kieu-nhat-nguyen-van-linh", "title": "Pizza 4P’s - Pizza Kiểu Nhật - Nguyễn Văn Linh", "category": "Nhà hàng", "avgscore": 8.1, "address": "Lô MD2, Nguyễn Văn Linh, P Tân Phú", "district": "Quận 7", "city": "TP. HCM", "latitude": "10.7314670000000", "longitude": "106.7156540000000", "timeopen": " 10:00 - 22:00", "pricerange": "200.000đ - 300.000đ"},
{"url": "https://www.foody.vn/ho-chi-minh/pizza-4p-s-pizza-kieu-nhat-le-thanh-ton", "title": "Pizza 4P’s - Pizza Kiểu Nhật - Lê Thánh Tôn", "category": "Nhà hàng", "avgscore": 8.0, "address": "8/15 Lê Thánh Tôn, P. Bến Nghé", "district": "Quận 1", "city": "TP. HCM", "latitude": "10.7818780000000", "longitude": "106.7050550000000", "timeopen": " 10:00 - 23:00", "pricerange": "250.000đ - 500.000đ"}
][
{"url": "https://www.foody.vn/ho-chi-minh/monkey-in-black-su-van-hanh", "title": "Monkey In Black Cafe - Sư Vạn Hạnh", "category": "Café/Dessert", "avgscore": 7.6, "address": "698 Sư Vạn Hạnh", "district": "Quận 10", "city": "TP. HCM", "latitude": "10.7710579885447", "longitude": "106.6700968280334", "timeopen": " 08:00 - 22:00", "pricerange": "17.000đ - 49.000đ"},
{"url": "https://www.foody.vn/ho-chi-minh/oromia-coffee-nam-ky-khoi-nghia", "title": "Oromia Coffee - Nam Kỳ Khởi Nghĩa", "category": "Café/Dessert", "avgscore": 7.8, "address": "193A/D3 Nam Kỳ Khởi Nghĩa", "district": "Quận 3", "city": "TP. HCM", "latitude": "10.7864664000000", "longitude": "106.6871420000000", "timeopen": " 07:00 - 22:30", "pricerange": "36.000đ - 146.000đ"},
{"url": "https://www.foody.vn/ho-chi-minh/morico-modern-japanese-restaurant-cafe-vincom-center", "title": "Morico - Contemporary Japanese Lifestyle - Vincom Center", "category": "Nhà hàng, Café/Dessert, Tiệm bánh", "avgscore": 7.7, "address": "Tầng B3 Vincom Center, 70 - 72 Lê Thánh Tôn, P. Bến Nghé", "district": "Quận 1", "city": "TP. HCM", "latitude": "10.7784420000000", "longitude": "106.7021580000000", "timeopen": " 10:00 - 22:00", "pricerange": "70.000đ - 220.000đ"},
{"url": "https://www.foody.vn/ho-chi-minh/morico-modern-japanese-restaurant-cafe-le-loi", "title": "Morico - Contemporary Japanese Lifestyle - Lê Lợi", "category": "Café/Dessert", "avgscore": 7.7, "address": "30 Lê Lợi, P. Bến Nghé", "district": "Quận 1", "city": "TP. HCM", "latitude": "10.7744540000000", "longitude": "106.7007420000000", "timeopen": " 10:30 - 21:00", "pricerange": "70.000đ - 165.000đ"},
{"url": "https://www.foody.vn/ho-chi-minh/morico-contemporary-japanese-lifestyle-diamond-island", "title": "Morico - Contemporary Japanese Lifestyle - Diamond Island", "category": "Nhà hàng, Café/Dessert", "avgscore": 4.9, "address": "Đảo Kim Cương, P. Bình Trưng Tây", "district": "Quận 2", "city": "TP. HCM", "latitude": "10.7787522000000", "longitude": "106.7466850000000", "timeopen": " 11:00 - 19:45", "pricerange": "38.000đ - 588.000đ"},
{"url": "https://www.foody.vn/ho-chi-minh/morico-modern-japanese-restaurant-cafe-somerset", "title": "Morico - Contemporary Japanese Lifestyle - Somerset", "category": "Café/Dessert", "avgscore": 8.0, "address": "11 Mạc Đĩnh Chi, P. Bến Nghé", "district": "Quận 1", "city": "TP. HCM", "latitude": "10.7839575171139", "longitude": "106.6997422379972", "timeopen": " 10:30 - 21:00", "pricerange": "70.000đ - 220.000đ"},
{"url": "https://www.foody.vn/ho-chi-minh/morico-modern-japanese-restaurant-cafe-crescent-mall", "title": "Morico - Contemporary Japanese Lifestyle - Crescent Mall", "category": "Nhà hàng, Café/Dessert", "avgscore": 7.9, "address": "Tầng 2 Crescent Mall, 101 Tôn Dật Tiên, P. Tân Phú", "district": "Quận 7", "city": "TP. HCM", "latitude": "10.7278570000000", "longitude": "106.7181740000000", "timeopen": " 11:00 - 18:00", "pricerange": "70.000đ - 165.000đ"},
{"url": "https://www.foody.vn/ho-chi-minh/morico-modern-japanese-restaurant-cafe-mplaza-saigon", "title": "Morico - Contemporary Japanese Lifestyle - Mplaza Saigon", "category": "Nhà hàng, Café/Dessert", "avgscore": 7.8, "address": "Mplaza Saigon, 39 Lê Duẩn, P. Bến Nghé", "district": "Quận 1", "city": "TP. HCM", "latitude": "10.7808820000000", "longitude": "106.7011180000000", "timeopen": " 10:30 - 21:00", "pricerange": "70.000đ - 165.000đ"},
{"url": "https://www.foody.vn/ho-chi-minh/morico-modern-japanese-restaurant-cafe-saigon-pearl", "title": "Morico - Contemporary Japanese Lifestyle - Saigon Pearl", "category": "Nhà hàng, Café/Dessert", "avgscore": 8.0, "address": "Saigon Pearl, 92 Nguyễn Hữu Cảnh", "district": "Quận Bình Thạnh", "city": "TP. HCM", "latitude": "10.7908811000000", "longitude": "106.7190231000000", "timeopen": " 10:00 - 21:00", "pricerange": "70.000đ - 165.000đ"},
{"url": "https://www.foody.vn/ho-chi-minh/the-sushi-bar-capri-hotel-residences", "title": "The Sushi Bar - Capri Hotel Residences", "category": "Nhà hàng", "avgscore": 7.7, "address": "C6B02-2, New South Urban City, P. Tân Phú", "district": "Quận 7", "city": "TP. HCM", "latitude": "10.7301360000000", "longitude": "106.7234240000000", "timeopen": " 11:00 - 14:30 | 17:00 - 22:30", "pricerange": "100.000đ - 330.000đ"},
{"url": "https://www.foody.vn/ho-chi-minh/marukame-udon-duong-3-thang-2", "title": "Marukame Udon - Đường 3 Tháng 2", "category": "Nhà hàng", "avgscore": 7.6, "address": "300 Đường 3 Tháng 2", "district": "Quận 10", "city": "TP. HCM", "latitude": "10.7702105675812", "longitude": "106.6715463995934", "timeopen": " 08:00 - 22:00", "pricerange": "50.000đ - 150.000đ"},
{"url": "https://www.foody.vn/ho-chi-minh/partea-english-tearoom-nguyen-hue-gian-2", "title": "Partea - English Tearoom - Nguyễn Huệ - Gian 2", "category": "Café/Dessert", "avgscore": 8.1, "address": "Tầng 4, 42 Nguyễn Huệ", "district": "Quận 1", "city": "TP. HCM", "latitude": "10.7739210000000", "longitude": "106.7043100000000", "timeopen": " 09:00 - 22:00", "pricerange": "50.000đ - 200.000đ"},
{"url": "https://www.foody.vn/ho-chi-minh/partea-english-tearoom-nguyen-thi-minh-khai", "title": "Partea - English Tearoom - Nguyễn Thị Minh Khai", "category": "Café/Dessert", "avgscore": 6.8, "address": "240 Nguyễn Thị Minh Khai, P. 6", "district": "Quận 3", "city": "TP. HCM", "latitude": "10.7741310000000", "longitude": "106.6899050000000", "timeopen": " 08:00 - 23:00", "pricerange": "50.000đ - 200.000đ"},
{"url": "https://www.foody.vn/ho-chi-minh/starbucks-coffee-emart", "title": "Starbucks Coffee - Emart", "category": "Café/Dessert", "avgscore": 7.3, "address": "Emart, 366 Phan Văn Trị, P. 5", "district": "Quận Gò Vấp", "city": "TP. HCM", "latitude": "10.8227380000000", "longitude": "106.6935720000000", "timeopen": " 08:00 - 22:05", "pricerange": "35.000đ - 100.000đ"},
{"url": "https://www.foody.vn/ho-chi-minh/starbucks-coffee-nguyen-hue-196982", "title": "Starbucks Coffee - Nguyễn Huệ", "category": "Café/Dessert", "avgscore": 7.6, "address": "99 Nguyễn Huệ, P. Bến Nghé", "district": "Quận 1", "city": "TP. HCM", "latitude": "10.7730970000000", "longitude": "106.7043330000000", "timeopen": " 06:30 - 23:00", "pricerange": "100.000đ - 200.000đ"},
{"url": "https://www.foody.vn/ho-chi-minh/buzza-pizza-nguyen-thi-thap", "title": "Buzza Pizza - Nguyễn Thị Thập", "category": "Nhà hàng", "avgscore": 8.1, "address": "Tầng 1, 51 - 53 Nguyễn Thị Thập, P. Tân Hưng", "district": "Quận 7", "city": "TP. HCM", "latitude": "10.7408710000000", "longitude": "106.6983734000000", "timeopen": " 10:00 - 22:30", "pricerange": "49.000đ - 159.000đ"},
{"url": "https://www.foody.vn/ho-chi-minh/buzza-pizza-e-mart-go-vap", "title": "Buzza Pizza - Emart Gò Vấp", "category": "Nhà hàng", "avgscore": 8.0, "address": "Tầng Trệt Emart Gò Vấp - 366 Phan Văn Trị, P. 5", "district": "Quận Gò Vấp", "city": "TP. HCM", "latitude": "10.8242327000000", "longitude": "106.6918905999999", "timeopen": " 10:00 - 22:30", "pricerange": "50.000đ - 200.000đ"},
{"url": "https://www.foody.vn/ho-chi-minh/hanuri-quan-an-han-quoc-phan-van-tri", "title": "Hanuri - Quán Ăn Hàn Quốc - Phan Văn Trị", "category": "Quán ăn", "avgscore": 8.0, "address": "530 - 532 Phan Văn Trị, P. 7", "district": "Quận Gò Vấp", "city": "TP. HCM", "latitude": "10.8297720000000", "longitude": "106.6811750000000", "timeopen": " 09:00 - 21:30", "pricerange": "50.000đ - 110.000đ"},
{"url": "https://www.foody.vn/ho-chi-minh/pizza-4p-s-pizza-kieu-nhat-estella-place", "title": "Pizza 4P's - Pizza Kiểu Nhật - Estella Place", "category": "Nhà hàng", "avgscore": 8.5, "address": "88 Song Hành, P. An Phú", "district": "Quận 2", "city": "TP. HCM", "latitude": "10.8021050000000", "longitude": "106.7485740000000", "timeopen": " 10:00 - 22:00", "pricerange": "100.000đ - 400.000đ"},
{"url": "https://www.foody.vn/ho-chi-minh/pizza-4p-s-pizza-kieu-nhat-le-dai-hanh", "title": "Pizza 4P’S - Pizza Kiểu Nhật - Lê Đại Hành", "category": "Quán ăn", "avgscore": 9.1, "address": "184 Lê Đại Hành, P. 15", "district": "Quận 11", "city": "TP. HCM", "latitude": "10.7650671003810", "longitude": "106.6552624895146", "timeopen": " 10:00 - 23:00", "pricerange": "200.000đ - 500.000đ"},
{"url": "https://www.foody.vn/ho-chi-minh/pizza-4p-s-pizza-kieu-nhat-xuan-thuy", "title": "Pizza 4P's - Pizza Kiểu Nhật - Xuân Thủy", "category": "Nhà hàng", "avgscore": 8.7, "address": "48/1 Xuân Thủy, P. Thảo Điền", "district": "Quận 2", "city": "TP. HCM", "latitude": "10.8026790000000", "longitude": "106.7307880000000", "timeopen": " 10:00 - 22:30", "pricerange": "250.000đ - 500.000đ"},
{"url": "https://www.foody.vn/ho-chi-minh/pizza-4p-s-pizza-kieu-nhat-vo-van-kiet", "title": "Pizza 4P’s - Pizza Kiểu Nhật - Võ Văn Kiệt", "category": "Nhà hàng", "avgscore": 8.9, "address": "608 Võ Văn Kiệt, P. Cầu Kho", "district": "Quận 1", "city": "TP. HCM", "latitude": "10.7549498359776", "longitude": "106.6877581087406", "timeopen": " 10:00 - 23:00", "pricerange": "200.000đ - 500.000đ"},
{"url": "https://www.foody.vn/ho-chi-minh/pizza-4p-s-pizza-kieu-nhat-hai-ba-trung", "title": "Pizza 4P's - Pizza Kiểu Nhật - Hai Bà Trưng", "category": "Nhà hàng", "avgscore": 8.3, "address": "151 Hai Bà Trưng", "district": "Quận 3", "city": "TP. HCM", "latitude": "10.7833510000000", "longitude": "106.6971768000000", "timeopen": " 10:00 - 23:00", "pricerange": "250.000đ - 400.000đ"},
{"url": "https://www.foody.vn/ho-chi-minh/pizza-4p-s-pizza-kieu-nhat-saigon-centre", "title": "Pizza 4P's - Pizza Kiểu Nhật - Saigon Centre", "category": "Nhà hàng", "avgscore": 8.5, "address": "01 - 2 Lầu 6 Saigon Centre, 65 Lê Lợi, P. Bến Nghé", "district": "Quận 1", "city": "TP. HCM", "latitude": "10.7737260000000", "longitude": "106.7008770000000", "timeopen": " 10:00 - 23:00", "pricerange": "250.000đ - 400.000đ"},
{"url": "https://www.foody.vn/ho-chi-minh/pizza-4p-s-pizza-kieu-nhat-thu-khoa-huan", "title": "Pizza 4P's - Pizza Kiểu Nhật - Thủ Khoa Huân", "category": "Nhà hàng", "avgscore": 8.4, "address": "8 Thủ Khoa Huân, P. Bến Thành", "district": "Quận 1", "city": "TP. HCM", "latitude": "10.7734580000000", "longitude": "106.6975160000000", "timeopen": " 10:00 - 23:00 | 10:00 - 02:00", "pricerange": "150.000đ - 300.000đ"},
{"url": "https://www.foody.vn/ho-chi-minh/pizza-4p-s-pizza-kieu-nhat-nguyen-van-linh", "title": "Pizza 4P’s - Pizza Kiểu Nhật - Nguyễn Văn Linh", "category": "Nhà hàng", "avgscore": 8.1, "address": "Lô MD2, Nguyễn Văn Linh, P Tân Phú", "district": "Quận 7", "city": "TP. HCM", "latitude": "10.7314670000000", "longitude": "106.7156540000000", "timeopen": " 10:00 - 22:00", "pricerange": "200.000đ - 300.000đ"},
{"url": "https://www.foody.vn/ho-chi-minh/pizza-4p-s-pizza-kieu-nhat-le-thanh-ton", "title": "Pizza 4P’s - Pizza Kiểu Nhật - Lê Thánh Tôn", "category": "Nhà hàng", "avgscore": 8.0, "address": "8/15 Lê Thánh Tôn, P. Bến Nghé", "district": "Quận 1", "city": "TP. HCM", "latitude": "10.7818780000000", "longitude": "106.7050550000000", "timeopen": " 10:00 - 23:00", "pricerange": "250.000đ - 500.000đ"},
{"url": "https://www.foody.vn/ho-chi-minh/hanuri-quan-an-han-quoc-cong-hoa", "title": "Hanuri - Quán Ăn Hàn Quốc - Cộng Hòa", "category": "Quán ăn", "avgscore": 6.9, "address": "51 Cộng Hòa, P. 4", "district": "Quận Tân Bình", "city": "TP. HCM", "latitude": "10.8010640000000", "longitude": "106.6562020000000", "timeopen": " 09:00 - 21:30", "pricerange": "50.000đ - 110.000đ"},
{"url": "https://www.foody.vn/ho-chi-minh/hanuri-quan-an-han-quoc-dien-bien-phu", "title": "Hanuri - Quán Ăn Hàn Quốc - Điện Biên Phủ", "category": "Quán ăn", "avgscore": 7.6, "address": "531 Điện Biên Phủ, P. 3", "district": "Quận 3", "city": "TP. HCM", "latitude": "10.7709430000000", "longitude": "106.6771260000000", "timeopen": " 08:00 - 22:00", "pricerange": "25.000đ - 100.000đ"},
{"url": "https://www.foody.vn/ho-chi-minh/hanuri-quan-an-han-quoc-xo-viet-nghe-tinh", "title": "Hanuri - Quán Ăn Hàn Quốc - Xô Viết Nghệ Tĩnh", "category": "Quán ăn", "avgscore": 7.3, "address": "121 Xô Viết Nghệ Tĩnh, P. 17", "district": "Quận Bình Thạnh", "city": "TP. HCM", "latitude": "10.7939338304231", "longitude": "106.7089095711708", "timeopen": " 09:00 - 21:30", "pricerange": "50.000đ - 150.000đ"},
{"url": "https://www.foody.vn/ho-chi-minh/hanuri-korean-fast-food-nguyen-dinh-chieu", "title": "Hanuri - Quán Ăn Hàn Quốc - Nguyễn Đình Chiểu", "category": "Nhà hàng", "avgscore": 7.3, "address": "284A Nguyễn Đình Chiểu, P. 6", "district": "Quận 3", "city": "TP. HCM", "latitude": "10.7758509774538", "longitude": "106.6874086484313", "timeopen": " 09:00 - 21:30", "pricerange": "50.000đ - 110.000đ"},
{"url": "https://www.foody.vn/ho-chi-minh/hanuri-quan-an-han-quoc", "title": "Hanuri - Quán Ăn Hàn Quốc - Sư Vạn Hạnh", "category": "Quán ăn", "avgscore": 7.1, "address": "736 Sư Vạn Hạnh  P.12", "district": "Quận 10", "city": "TP. HCM", "latitude": "10.7755800000000", "longitude": "106.6676200000000", "timeopen": " 09:30 - 21:00", "pricerange": "50.000đ - 110.000đ"},
{"url": "https://www.foody.vn/ho-chi-minh/buzza-pizza", "title": "Buzza Pizza - Nguyễn Trung Trực", "category": "Nhà hàng", "avgscore": 7.9, "address": "Tầng 3, 5-7-9 Nguyễn Trung Trực, P. Bến Thành", "district": "Quận 1", "city": "TP. HCM", "latitude": "10.7735930000000", "longitude": "106.6994810000000", "timeopen": " 10:00 - 22:30", "pricerange": "49.000đ - 199.000đ"},
{"url": "https://www.foody.vn/ho-chi-minh/starbucks-coffee-pearl-plaza", "title": "Starbucks Coffee - Pearl Plaza", "category": "Café/Dessert", "avgscore": 7.8, "address": "L1 - 06A + 06B 561 Điện Biên Phủ, P. 25", "district": "Quận Bình Thạnh", "city": "TP. HCM", "latitude": "10.7999209174330", "longitude": "106.7184394598007", "timeopen": " 07:00 - 22:00", "pricerange": "60.000đ - 100.000đ"},
{"url": "https://www.foody.vn/ho-chi-minh/starbucks-coffee-thao-dien", "title": "Starbucks Coffee - Thảo Điền", "category": "Café/Dessert", "avgscore": 8.2, "address": "21 Thảo Điền, P. Thảo Điền", "district": "Quận 2", "city": "TP. HCM", "latitude": "10.8032210000000", "longitude": "106.7377180000000", "timeopen": " 06:30 - 21:30", "pricerange": "50.000đ - 220.000đ"},
{"url": "https://www.foody.vn/ho-chi-minh/starbucks-coffee-mplaza-saigon", "title": "Starbucks Coffee - Mplaza Saigon", "category": "Café/Dessert", "avgscore": 8.0, "address": "Mplaza Saigon, 39 Lê Duẩn, P. Bến Nghé", "district": "Quận 1", "city": "TP. HCM", "latitude": "10.7843863000000", "longitude": "106.7023408000000", "timeopen": " 07:00 - 23:00", "pricerange": "50.000đ - 200.000đ"}
][
{"url": "https://www.foody.vn/ho-chi-minh/monkey-in-black-su-van-hanh", "title": "Monkey In Black Cafe - Sư Vạn Hạnh", "category": "Café/Dessert", "avgscore": 7.6, "address": "698 Sư Vạn Hạnh", "district": "Quận 10", "city": "TP. HCM", "latitude": "10.7710579885447", "longitude": "106.6700968280334", "timeopen": " 08:00 - 22:00", "pricerange": "17.000đ - 49.000đ"},
{"url": "https://www.foody.vn/ho-chi-minh/oromia-coffee-nam-ky-khoi-nghia", "title": "Oromia Coffee - Nam Kỳ Khởi Nghĩa", "category": "Café/Dessert", "avgscore": 7.8, "address": "193A/D3 Nam Kỳ Khởi Nghĩa", "district": "Quận 3", "city": "TP. HCM", "latitude": "10.7864664000000", "longitude": "106.6871420000000", "timeopen": " 07:00 - 22:30", "pricerange": "36.000đ - 146.000đ"},
{"url": "https://www.foody.vn/ho-chi-minh/morico-modern-japanese-restaurant-cafe-vincom-center", "title": "Morico - Contemporary Japanese Lifestyle - Vincom Center", "category": "Nhà hàng, Café/Dessert, Tiệm bánh", "avgscore": 7.7, "address": "Tầng B3 Vincom Center, 70 - 72 Lê Thánh Tôn, P. Bến Nghé", "district": "Quận 1", "city": "TP. HCM", "latitude": "10.7784420000000", "longitude": "106.7021580000000", "timeopen": " 10:00 - 22:00", "pricerange": "70.000đ - 220.000đ"},
{"url": "https://www.foody.vn/ho-chi-minh/morico-modern-japanese-restaurant-cafe-le-loi", "title": "Morico - Contemporary Japanese Lifestyle - Lê Lợi", "category": "Café/Dessert", "avgscore": 7.7, "address": "30 Lê Lợi, P. Bến Nghé", "district": "Quận 1", "city": "TP. HCM", "latitude": "10.7744540000000", "longitude": "106.7007420000000", "timeopen": " 10:30 - 21:00", "pricerange": "70.000đ - 165.000đ"},
{"url": "https://www.foody.vn/ho-chi-minh/morico-contemporary-japanese-lifestyle-diamond-island", "title": "Morico - Contemporary Japanese Lifestyle - Diamond Island", "category": "Nhà hàng, Café/Dessert", "avgscore": 4.9, "address": "Đảo Kim Cương, P. Bình Trưng Tây", "district": "Quận 2", "city": "TP. HCM", "latitude": "10.7787522000000", "longitude": "106.7466850000000", "timeopen": " 11:00 - 19:45", "pricerange": "38.000đ - 588.000đ"},
{"url": "https://www.foody.vn/ho-chi-minh/morico-modern-japanese-restaurant-cafe-somerset", "title": "Morico - Contemporary Japanese Lifestyle - Somerset", "category": "Café/Dessert", "avgscore": 8.0, "address": "11 Mạc Đĩnh Chi, P. Bến Nghé", "district": "Quận 1", "city": "TP. HCM", "latitude": "10.7839575171139", "longitude": "106.6997422379972", "timeopen": " 10:30 - 21:00", "pricerange": "70.000đ - 220.000đ"},
{"url": "https://www.foody.vn/ho-chi-minh/morico-modern-japanese-restaurant-cafe-crescent-mall", "title": "Morico - Contemporary Japanese Lifestyle - Crescent Mall", "category": "Nhà hàng, Café/Dessert", "avgscore": 7.9, "address": "Tầng 2 Crescent Mall, 101 Tôn Dật Tiên, P. Tân Phú", "district": "Quận 7", "city": "TP. HCM", "latitude": "10.7278570000000", "longitude": "106.7181740000000", "timeopen": " 11:00 - 18:00", "pricerange": "70.000đ - 165.000đ"},
{"url": "https://www.foody.vn/ho-chi-minh/morico-modern-japanese-restaurant-cafe-mplaza-saigon", "title": "Morico - Contemporary Japanese Lifestyle - Mplaza Saigon", "category": "Nhà hàng, Café/Dessert", "avgscore": 7.8, "address": "Mplaza Saigon, 39 Lê Duẩn, P. Bến Nghé", "district": "Quận 1", "city": "TP. HCM", "latitude": "10.7808820000000", "longitude": "106.7011180000000", "timeopen": " 10:30 - 21:00", "pricerange": "70.000đ - 165.000đ"},
{"url": "https://www.foody.vn/ho-chi-minh/morico-modern-japanese-restaurant-cafe-saigon-pearl", "title": "Morico - Contemporary Japanese Lifestyle - Saigon Pearl", "category": "Nhà hàng, Café/Dessert", "avgscore": 8.0, "address": "Saigon Pearl, 92 Nguyễn Hữu Cảnh", "district": "Quận Bình Thạnh", "city": "TP. HCM", "latitude": "10.7908811000000", "longitude": "106.7190231000000", "timeopen": " 10:00 - 21:00", "pricerange": "70.000đ - 165.000đ"},
{"url": "https://www.foody.vn/ho-chi-minh/the-sushi-bar-capri-hotel-residences", "title": "The Sushi Bar - Capri Hotel Residences", "category": "Nhà hàng", "avgscore": 7.7, "address": "C6B02-2, New South Urban City, P. Tân Phú", "district": "Quận 7", "city": "TP. HCM", "latitude": "10.7301360000000", "longitude": "106.7234240000000", "timeopen": " 11:00 - 14:30 | 17:00 - 22:30", "pricerange": "100.000đ - 330.000đ"},
{"url": "https://www.foody.vn/ho-chi-minh/marukame-udon-duong-3-thang-2", "title": "Marukame Udon - Đường 3 Tháng 2", "category": "Nhà hàng", "avgscore": 7.6, "address": "300 Đường 3 Tháng 2", "district": "Quận 10", "city": "TP. HCM", "latitude": "10.7702105675812", "longitude": "106.6715463995934", "timeopen": " 08:00 - 22:00", "pricerange": "50.000đ - 150.000đ"},
{"url": "https://www.foody.vn/ho-chi-minh/partea-english-tearoom-nguyen-hue-gian-2", "title": "Partea - English Tearoom - Nguyễn Huệ - Gian 2", "category": "Café/Dessert", "avgscore": 8.1, "address": "Tầng 4, 42 Nguyễn Huệ", "district": "Quận 1", "city": "TP. HCM", "latitude": "10.7739210000000", "longitude": "106.7043100000000", "timeopen": " 09:00 - 22:00", "pricerange": "50.000đ - 200.000đ"},
{"url": "https://www.foody.vn/ho-chi-minh/partea-english-tearoom-nguyen-thi-minh-khai", "title": "Partea - English Tearoom - Nguyễn Thị Minh Khai", "category": "Café/Dessert", "avgscore": 6.8, "address": "240 Nguyễn Thị Minh Khai, P. 6", "district": "Quận 3", "city": "TP. HCM", "latitude": "10.7741310000000", "longitude": "106.6899050000000", "timeopen": " 08:00 - 23:00", "pricerange": "50.000đ - 200.000đ"},
{"url": "https://www.foody.vn/ho-chi-minh/starbucks-coffee-emart", "title": "Starbucks Coffee - Emart", "category": "Café/Dessert", "avgscore": 7.3, "address": "Emart, 366 Phan Văn Trị, P. 5", "district": "Quận Gò Vấp", "city": "TP. HCM", "latitude": "10.8227380000000", "longitude": "106.6935720000000", "timeopen": " 08:00 - 22:05", "pricerange": "35.000đ - 100.000đ"},
{"url": "https://www.foody.vn/ho-chi-minh/starbucks-coffee-nguyen-hue-196982", "title": "Starbucks Coffee - Nguyễn Huệ", "category": "Café/Dessert", "avgscore": 7.6, "address": "99 Nguyễn Huệ, P. Bến Nghé", "district": "Quận 1", "city": "TP. HCM", "latitude": "10.7730970000000", "longitude": "106.7043330000000", "timeopen": " 06:30 - 23:00", "pricerange": "100.000đ - 200.000đ"},
{"url": "https://www.foody.vn/ho-chi-minh/buzza-pizza-nguyen-thi-thap", "title": "Buzza Pizza - Nguyễn Thị Thập", "category": "Nhà hàng", "avgscore": 8.1, "address": "Tầng 1, 51 - 53 Nguyễn Thị Thập, P. Tân Hưng", "district": "Quận 7", "city": "TP. HCM", "latitude": "10.7408710000000", "longitude": "106.6983734000000", "timeopen": " 10:00 - 22:30", "pricerange": "49.000đ - 159.000đ"},
{"url": "https://www.foody.vn/ho-chi-minh/buzza-pizza-e-mart-go-vap", "title": "Buzza Pizza - Emart Gò Vấp", "category": "Nhà hàng", "avgscore": 8.0, "address": "Tầng Trệt Emart Gò Vấp - 366 Phan Văn Trị, P. 5", "district": "Quận Gò Vấp", "city": "TP. HCM", "latitude": "10.8242327000000", "longitude": "106.6918905999999", "timeopen": " 10:00 - 22:30", "pricerange": "50.000đ - 200.000đ"},
{"url": "https://www.foody.vn/ho-chi-minh/hanuri-quan-an-han-quoc-phan-van-tri", "title": "Hanuri - Quán Ăn Hàn Quốc - Phan Văn Trị", "category": "Quán ăn", "avgscore": 8.0, "address": "530 - 532 Phan Văn Trị, P. 7", "district": "Quận Gò Vấp", "city": "TP. HCM", "latitude": "10.8297720000000", "longitude": "106.6811750000000", "timeopen": " 09:00 - 21:30", "pricerange": "50.000đ - 110.000đ"},
{"url": "https://www.foody.vn/ho-chi-minh/pizza-4p-s-pizza-kieu-nhat-estella-place", "title": "Pizza 4P's - Pizza Kiểu Nhật - Estella Place", "category": "Nhà hàng", "avgscore": 8.5, "address": "88 Song Hành, P. An Phú", "district": "Quận 2", "city": "TP. HCM", "latitude": "10.8021050000000", "longitude": "106.7485740000000", "timeopen": " 10:00 - 22:00", "pricerange": "100.000đ - 400.000đ"},
{"url": "https://www.foody.vn/ho-chi-minh/pizza-4p-s-pizza-kieu-nhat-le-dai-hanh", "title": "Pizza 4P’S - Pizza Kiểu Nhật - Lê Đại Hành", "category": "Quán ăn", "avgscore": 9.1, "address": "184 Lê Đại Hành, P. 15", "district": "Quận 11", "city": "TP. HCM", "latitude": "10.7650671003810", "longitude": "106.6552624895146", "timeopen": " 10:00 - 23:00", "pricerange": "200.000đ - 500.000đ"},
{"url": "https://www.foody.vn/ho-chi-minh/pizza-4p-s-pizza-kieu-nhat-xuan-thuy", "title": "Pizza 4P's - Pizza Kiểu Nhật - Xuân Thủy", "category": "Nhà hàng", "avgscore": 8.7, "address": "48/1 Xuân Thủy, P. Thảo Điền", "district": "Quận 2", "city": "TP. HCM", "latitude": "10.8026790000000", "longitude": "106.7307880000000", "timeopen": " 10:00 - 22:30", "pricerange": "250.000đ - 500.000đ"},
{"url": "https://www.foody.vn/ho-chi-minh/pizza-4p-s-pizza-kieu-nhat-vo-van-kiet", "title": "Pizza 4P’s - Pizza Kiểu Nhật - Võ Văn Kiệt", "category": "Nhà hàng", "avgscore": 8.9, "address": "608 Võ Văn Kiệt, P. Cầu Kho", "district": "Quận 1", "city": "TP. HCM", "latitude": "10.7549498359776", "longitude": "106.6877581087406", "timeopen": " 10:00 - 23:00", "pricerange": "200.000đ - 500.000đ"},
{"url": "https://www.foody.vn/ho-chi-minh/pizza-4p-s-pizza-kieu-nhat-hai-ba-trung", "title": "Pizza 4P's - Pizza Kiểu Nhật - Hai Bà Trưng", "category": "Nhà hàng", "avgscore": 8.3, "address": "151 Hai Bà Trưng", "district": "Quận 3", "city": "TP. HCM", "latitude": "10.7833510000000", "longitude": "106.6971768000000", "timeopen": " 10:00 - 23:00", "pricerange": "250.000đ - 400.000đ"},
{"url": "https://www.foody.vn/ho-chi-minh/pizza-4p-s-pizza-kieu-nhat-saigon-centre", "title": "Pizza 4P's - Pizza Kiểu Nhật - Saigon Centre", "category": "Nhà hàng", "avgscore": 8.5, "address": "01 - 2 Lầu 6 Saigon Centre, 65 Lê Lợi, P. Bến Nghé", "district": "Quận 1", "city": "TP. HCM", "latitude": "10.7737260000000", "longitude": "106.7008770000000", "timeopen": " 10:00 - 23:00", "pricerange": "250.000đ - 400.000đ"},
{"url": "https://www.foody.vn/ho-chi-minh/pizza-4p-s-pizza-kieu-nhat-thu-khoa-huan", "title": "Pizza 4P's - Pizza Kiểu Nhật - Thủ Khoa Huân", "category": "Nhà hàng", "avgscore": 8.4, "address": "8 Thủ Khoa Huân, P. Bến Thành", "district": "Quận 1", "city": "TP. HCM", "latitude": "10.7734580000000", "longitude": "106.6975160000000", "timeopen": " 10:00 - 23:00 | 10:00 - 02:00", "pricerange": "150.000đ - 300.000đ"},
{"url": "https://www.foody.vn/ho-chi-minh/pizza-4p-s-pizza-kieu-nhat-nguyen-van-linh", "title": "Pizza 4P’s - Pizza Kiểu Nhật - Nguyễn Văn Linh", "category": "Nhà hàng", "avgscore": 8.1, "address": "Lô MD2, Nguyễn Văn Linh, P Tân Phú", "district": "Quận 7", "city": "TP. HCM", "latitude": "10.7314670000000", "longitude": "106.7156540000000", "timeopen": " 10:00 - 22:00", "pricerange": "200.000đ - 300.000đ"},
{"url": "https://www.foody.vn/ho-chi-minh/pizza-4p-s-pizza-kieu-nhat-le-thanh-ton", "title": "Pizza 4P’s - Pizza Kiểu Nhật - Lê Thánh Tôn", "category": "Nhà hàng", "avgscore": 8.0, "address": "8/15 Lê Thánh Tôn, P. Bến Nghé", "district": "Quận 1", "city": "TP. HCM", "latitude": "10.7818780000000", "longitude": "106.7050550000000", "timeopen": " 10:00 - 23:00", "pricerange": "250.000đ - 500.000đ"},
{"url": "https://www.foody.vn/ho-chi-minh/hanuri-quan-an-han-quoc-cong-hoa", "title": "Hanuri - Quán Ăn Hàn Quốc - Cộng Hòa", "category": "Quán ăn", "avgscore": 6.9, "address": "51 Cộng Hòa, P. 4", "district": "Quận Tân Bình", "city": "TP. HCM", "latitude": "10.8010640000000", "longitude": "106.6562020000000", "timeopen": " 09:00 - 21:30", "pricerange": "50.000đ - 110.000đ"},
{"url": "https://www.foody.vn/ho-chi-minh/hanuri-quan-an-han-quoc-dien-bien-phu", "title": "Hanuri - Quán Ăn Hàn Quốc - Điện Biên Phủ", "category": "Quán ăn", "avgscore": 7.6, "address": "531 Điện Biên Phủ, P. 3", "district": "Quận 3", "city": "TP. HCM", "latitude": "10.7709430000000", "longitude": "106.6771260000000", "timeopen": " 08:00 - 22:00", "pricerange": "25.000đ - 100.000đ"},
{"url": "https://www.foody.vn/ho-chi-minh/hanuri-quan-an-han-quoc-xo-viet-nghe-tinh", "title": "Hanuri - Quán Ăn Hàn Quốc - Xô Viết Nghệ Tĩnh", "category": "Quán ăn", "avgscore": 7.3, "address": "121 Xô Viết Nghệ Tĩnh, P. 17", "district": "Quận Bình Thạnh", "city": "TP. HCM", "latitude": "10.7939338304231", "longitude": "106.7089095711708", "timeopen": " 09:00 - 21:30", "pricerange": "50.000đ - 150.000đ"},
{"url": "https://www.foody.vn/ho-chi-minh/hanuri-korean-fast-food-nguyen-dinh-chieu", "title": "Hanuri - Quán Ăn Hàn Quốc - Nguyễn Đình Chiểu", "category": "Nhà hàng", "avgscore": 7.3, "address": "284A Nguyễn Đình Chiểu, P. 6", "district": "Quận 3", "city": "TP. HCM", "latitude": "10.7758509774538", "longitude": "106.6874086484313", "timeopen": " 09:00 - 21:30", "pricerange": "50.000đ - 110.000đ"},
{"url": "https://www.foody.vn/ho-chi-minh/hanuri-quan-an-han-quoc", "title": "Hanuri - Quán Ăn Hàn Quốc - Sư Vạn Hạnh", "category": "Quán ăn", "avgscore": 7.1, "address": "736 Sư Vạn Hạnh  P.12", "district": "Quận 10", "city": "TP. HCM", "latitude": "10.7755800000000", "longitude": "106.6676200000000", "timeopen": " 09:30 - 21:00", "pricerange": "50.000đ - 110.000đ"},
{"url": "https://www.foody.vn/ho-chi-minh/buzza-pizza", "title": "Buzza Pizza - Nguyễn Trung Trực", "category": "Nhà hàng", "avgscore": 7.9, "address": "Tầng 3, 5-7-9 Nguyễn Trung Trực, P. Bến Thành", "district": "Quận 1", "city": "TP. HCM", "latitude": "10.7735930000000", "longitude": "106.6994810000000", "timeopen": " 10:00 - 22:30", "pricerange": "49.000đ - 199.000đ"},
{"url": "https://www.foody.vn/ho-chi-minh/starbucks-coffee-pearl-plaza", "title": "Starbucks Coffee - Pearl Plaza", "category": "Café/Dessert", "avgscore": 7.8, "address": "L1 - 06A + 06B 561 Điện Biên Phủ, P. 25", "district": "Quận Bình Thạnh", "city": "TP. HCM", "latitude": "10.7999209174330", "longitude": "106.7184394598007", "timeopen": " 07:00 - 22:00", "pricerange": "60.000đ - 100.000đ"},
{"url": "https://www.foody.vn/ho-chi-minh/starbucks-coffee-thao-dien", "title": "Starbucks Coffee - Thảo Điền", "category": "Café/Dessert", "avgscore": 8.2, "address": "21 Thảo Điền, P. Thảo Điền", "district": "Quận 2", "city": "TP. HCM", "latitude": "10.8032210000000", "longitude": "106.7377180000000", "timeopen": " 06:30 - 21:30", "pricerange": "50.000đ - 220.000đ"}
]